$GPGGA,52746.75,,,,,0,0,999.9,,M,,M,,*66,1.70245E+12
$GPGGA,52747.49,,,,,0,0,999.9,,M,,M,,*68,1.70245E+12
$GPGGA,52747.75,3532.791308,N,13940.34087,E,1,10,1.9,9.1,M,39.2,M,,*62,1.70245E+12
$GPGGA,52748.75,3532.785573,N,13940.3386,E,1,12,0.8,35.2,M,39.2,M,,*5A,1.70245E+12
$GPGGA,52749.75,3532.788866,N,13940.33541,E,1,12,0.8,20.6,M,39.2,M,,*53,1.70245E+12
$GPGGA,52750.75,3532.789266,N,13940.33542,E,1,12,2.5,21.8,M,39.2,M,,*52,1.70245E+12
$GPGGA,52751.75,3532.791825,N,13940.33511,E,1,23,0.8,29.7,M,39.2,M,,*5C,1.70245E+12
$GPGGA,52752.75,3532.791588,N,13940.33481,E,1,26,0.5,27.9,M,39.2,M,,*53,1.70245E+12
$GPGGA,52754,3532.791254,N,13940.3347,E,1,31,0.5,26.9,M,39.2,M,,*58,1.70245E+12
$GPGGA,52755,3532.791265,N,13940.33469,E,1,36,0.6,24.9,M,39.2,M,,*5C,1.70245E+12
$GPGGA,52756,3532.791252,N,13940.33469,E,1,44,0.5,23.2,M,39.2,M,,*5B,1.70245E+12
$GPGGA,52757,3532.791247,N,13940.33469,E,1,43,0.5,21.7,M,39.2,M,,*5D,1.70245E+12
$GPGGA,52758,3532.791245,N,13940.33469,E,1,44,0.5,20.5,M,39.2,M,,*53,1.70245E+12
$GPGGA,52759,3532.791247,N,13940.33468,E,1,45,0.5,19.3,M,39.2,M,,*58,1.70245E+12
$GPGGA,52800,3532.791249,N,13940.33468,E,1,45,0.5,18.4,M,39.2,M,,*52,1.70245E+12
$GPGGA,52801,3532.791255,N,13940.33468,E,1,45,0.5,17.6,M,39.2,M,,*51,1.70245E+12
$GPGGA,52802,3532.791263,N,13940.33468,E,1,45,0.5,17.1,M,39.2,M,,*57,1.70245E+12
$GPGGA,52803,3532.791268,N,13940.33468,E,1,45,0.5,16.6,M,39.2,M,,*5D,1.70245E+12
$GPGGA,52804,3532.791276,N,13940.33468,E,1,45,0.5,16.1,M,39.2,M,,*53,1.70245E+12
$GPGGA,52805,3532.791314,N,13940.33467,E,1,45,0.4,16,M,39.2,M,,*5F,1.70245E+12
$GPGGA,52806,3532.791262,N,13940.33485,E,1,45,0.4,15.6,M,39.2,M,,*56,1.70245E+12
$GPGGA,52807,3532.790978,N,13940.33523,E,1,45,0.5,15.1,M,39.2,M,,*5E,1.70245E+12
$GPGGA,52808,3532.790672,N,13940.33542,E,1,45,0.5,14.3,M,39.2,M,,*52,1.70245E+12
$GPGGA,52809,3532.790252,N,13940.33598,E,1,45,0.5,13.7,M,39.2,M,,*5E,1.70245E+12
$GPGGA,52810,3532.789775,N,13940.33646,E,1,45,0.5,13.1,M,39.2,M,,*53,1.70245E+12
$GPGGA,52811,3532.78935,N,13940.33687,E,1,46,0.5,12.3,M,39.2,M,,*5C,1.70245E+12
$GPGGA,52812,3532.788913,N,13940.33738,E,1,45,0.5,12,M,39.2,M,,*57,1.70245E+12
$GPGGA,52813,3532.788482,N,13940.33792,E,1,46,0.5,11.6,M,39.2,M,,*55,1.70245E+12
$GPGGA,52814,3532.788092,N,13940.33841,E,1,45,0.5,11.5,M,39.2,M,,*52,1.70245E+12
$GPGGA,52815,3532.787408,N,13940.33883,E,1,46,0.5,10.6,M,39.2,M,,*51,1.70245E+12
$GPGGA,52816,3532.786947,N,13940.33926,E,1,45,0.5,10.1,M,39.2,M,,*5C,1.70245E+12
$GPGGA,52817,3532.786395,N,13940.33974,E,1,46,0.5,9.6,M,39.2,M,,*60,1.70245E+12
$GPGGA,52818,3532.785916,N,13940.34026,E,1,45,0.5,8.8,M,39.2,M,,*6C,1.70245E+12
$GPGGA,52819,3532.785474,N,13940.3408,E,1,45,0.5,8.1,M,39.2,M,,*67,1.70245E+12
$GPGGA,52820,3532.78497,N,13940.3413,E,1,45,0.5,7.7,M,39.2,M,,*66,1.70245E+12
$GPGGA,52821,3532.784466,N,13940.3419,E,1,45,0.5,7.2,M,39.2,M,,*60,1.70245E+12
$GPGGA,52822,3532.783938,N,13940.34246,E,1,45,0.1,6.8,M,39.2,M,,*66,1.70245E+12
$GPGGA,52823,3532.783414,N,13940.34299,E,1,45,0.1,6.4,M,39.2,M,,*6B,1.70245E+12
$GPGGA,52824,3532.782903,N,13940.3435,E,1,45,0.1,6,M,39.2,M,,*68,1.70245E+12
$GPGGA,52825,3532.782431,N,13940.34401,E,1,45,0.1,5.8,M,39.2,M,,*69,1.70245E+12
$GPGGA,52826,3532.781886,N,13940.34453,E,1,45,0.1,5.5,M,39.2,M,,*62,1.70245E+12
$GPGGA,52827,3532.78135,N,13940.34508,E,1,42,0.1,5.2,M,39.2,M,,*65,1.70245E+12
$GPGGA,52828,3532.780744,N,13940.34587,E,1,44,0.2,4.8,M,39.2,M,,*66,1.70245E+12
$GPGGA,52829,3532.780086,N,13940.34654,E,1,43,0.2,4.7,M,39.2,M,,*6E,1.70245E+12
$GPGGA,52830,3532.779728,N,13940.34742,E,1,44,0.2,4.2,M,39.2,M,,*66,1.70245E+12
$GPGGA,52831,3532.779462,N,13940.3482,E,1,43,0.1,3.7,M,39.2,M,,*63,1.70245E+12
$GPGGA,52832,3532.77934,N,13940.34896,E,1,44,0.1,3.3,M,39.2,M,,*6E,1.70245E+12
$GPGGA,52833,3532.779352,N,13940.34957,E,1,44,0.1,3.1,M,39.2,M,,*66,1.70245E+12
$GPGGA,52834,3532.779335,N,13940.35007,E,1,43,0.1,2.7,M,39.2,M,,*68,1.70245E+12
$GPGGA,52835,3532.779385,N,13940.35047,E,1,45,0.2,2.4,M,39.2,M,,*60,1.70245E+12
$GPGGA,52836,3532.779597,N,13940.351,E,1,43,0.2,2,M,39.2,M,,*6D,1.70245E+12
$GPGGA,52837,3532.779995,N,13940.3514,E,1,44,0.2,1.5,M,39.2,M,,*68,1.70245E+12
$GPGGA,52838,3532.780641,N,13940.35177,E,1,43,0.1,1.1,M,39.2,M,,*64,1.70245E+12
$GPGGA,52839,3532.781297,N,13940.35207,E,1,42,0.1,0.9,M,39.2,M,,*65,1.70245E+12
$GPGGA,52840,3532.782014,N,13940.35204,E,1,43,0.1,0.8,M,39.2,M,,*62,1.70245E+12
$GPGGA,52841,3532.782667,N,13940.35192,E,1,42,0.1,0.6,M,39.2,M,,*62,1.70245E+12
$GPGGA,52842,3532.783248,N,13940.35158,E,1,43,0.1,0.4,M,39.2,M,,*65,1.70245E+12
$GPGGA,52843,3532.783818,N,13940.35119,E,1,45,0.1,0.3,M,39.2,M,,*6C,1.70245E+12
$GPGGA,52844,3532.7844,N,13940.35077,E,1,46,0.1,0.4,M,39.2,M,,*6C,1.70245E+12
$GPGGA,52845,3532.784972,N,13940.35028,E,1,45,0.1,0.3,M,39.2,M,,*6E,1.70245E+12
$GPGGA,52846,3532.78552,N,13940.34987,E,1,46,0.1,0.2,M,39.2,M,,*6C,1.70245E+12
$GPGGA,52847,3532.786144,N,13940.34943,E,1,45,0.1,0.1,M,39.2,M,,*68,1.70245E+12
$GPGGA,52848,3532.786717,N,13940.34905,E,1,27,0.1,0.1,M,39.2,M,,*6A,1.70245E+12
$GPGGA,52849,3532.787256,N,13940.3485,E,1,43,0.1,0.3,M,39.2,M,,*68,1.70245E+12
$GPGGA,52850,3532.787797,N,13940.34797,E,1,45,0.1,0.3,M,39.2,M,,*68,1.70245E+12
$GPGGA,52851,3532.788367,N,13940.34747,E,1,46,0.1,0.3,M,39.2,M,,*65,1.70245E+12
$GPGGA,52852,3532.78887,N,13940.34687,E,1,46,0.2,0.3,M,39.2,M,,*69,1.70245E+12
$GPGGA,52853,3532.789457,N,13940.34645,E,1,44,0.2,0.2,M,39.2,M,,*67,1.70245E+12
$GPGGA,52854,3532.789959,N,13940.3459,E,1,44,0.2,0.1,M,39.2,M,,*64,1.70245E+12
$GPGGA,52855,3532.790531,N,13940.3454,E,1,45,0.2,0.1,M,39.2,M,,*6E,1.70245E+12
$GPGGA,52856,3532.790955,N,13940.34503,E,1,45,0.2,0,M,39.2,M,,*64,1.70245E+12
$GPGGA,52857,3532.791642,N,13940.34458,E,1,44,0.2,0,M,39.2,M,,*63,1.70245E+12
$GPGGA,52858,3532.792182,N,13940.34405,E,1,43,0.2,0,M,39.2,M,,*6A,1.70245E+12
$GPGGA,52859,3532.792804,N,13940.34351,E,1,45,0.1,0,M,39.2,M,,*6C,1.70245E+12
$GPGGA,52900,3532.793381,N,13940.34302,E,1,46,0.1,0,M,39.2,M,,*64,1.70245E+12
$GPGGA,52901,3532.793818,N,13940.3423,E,1,46,0.1,0,M,39.2,M,,*68,1.70245E+12
$GPGGA,52902,3532.793822,N,13940.34149,E,1,46,0.1,0,M,39.2,M,,*6D,1.70245E+12
$GPGGA,52903,3532.7937,N,13940.34068,E,1,45,0.1,0,M,39.2,M,,*64,1.70245E+12
$GPGGA,52904,3532.793469,N,13940.33993,E,1,46,0.2,0,M,39.2,M,,*6A,1.70245E+12
$GPGGA,52905,3532.793275,N,13940.33899,E,1,46,0.2,0,M,39.2,M,,*64,1.70245E+12
$GPGGA,52906,3532.792984,N,13940.338,E,1,45,0.2,0,M,39.2,M,,*64,1.70245E+12
$GPGGA,52907,3532.792668,N,13940.33721,E,1,45,0.1,0,M,39.2,M,,*61,1.70245E+12
$GPGGA,52908,3532.792266,N,13940.3364,E,1,45,0.1,0,M,39.2,M,,*67,1.70245E+12
$GPGGA,52909,3532.792019,N,13940.33568,E,1,45,0.1,0,M,39.2,M,,*60,1.70245E+12
$GPGGA,52910,3532.79172,N,13940.33508,E,1,46,0.1,0,M,39.2,M,,*6E,1.70245E+12
$GPGGA,52911,3532.791342,N,13940.33444,E,1,46,0.1,0,M,39.2,M,,*60,1.70245E+12
$GPGGA,52912,3532.791029,N,13940.33381,E,1,46,0.1,0,M,39.2,M,,*6E,1.70245E+12
$GPGGA,52913,3532.790728,N,13940.33322,E,1,45,0.1,0,M,39.2,M,,*63,1.70245E+12
$GPGGA,52914,3532.790628,N,13940.33321,E,1,43,0.1,0,M,39.2,M,,*63,1.70245E+12
$GPGGA,52915,3532.790716,N,13940.33329,E,1,45,0.1,0,M,39.2,M,,*61,1.70245E+12
$GPGGA,52916,3532.790755,N,13940.33336,E,1,45,0.1,0,M,39.2,M,,*6E,1.70245E+12
$GPGGA,52917,3532.790713,N,13940.33329,E,1,45,0.1,0,M,39.2,M,,*63,1.70245E+12
$GPGGA,52918,3532.790716,N,13940.33328,E,1,45,0.1,0,M,39.2,M,,*65,1.70245E+12
$GPGGA,52919,3532.790721,N,13940.33327,E,1,45,0.1,0,M,39.2,M,,*65,1.70245E+12
$GPGGA,52920,3532.790744,N,13940.33328,E,1,44,0.1,0,M,39.2,M,,*63,1.70245E+12
$GPGGA,52921,3532.790769,N,13940.33329,E,1,44,0.1,0,M,39.2,M,,*6C,1.70245E+12
$GPGGA,52922,3532.790762,N,13940.33329,E,1,44,0.1,0,M,39.2,M,,*65,1.70245E+12
$GPGGA,52923,3532.790766,N,13940.33328,E,1,44,0.1,0,M,39.2,M,,*6B,1.70245E+12
$GPGGA,52924,3532.790759,N,13940.33328,E,1,44,0.1,0,M,39.2,M,,*6D,1.70245E+12
$GPGGA,52925,3532.790755,N,13940.33328,E,1,44,0.1,0,M,39.2,M,,*64,1.70245E+12
$GPGGA,52926,3532.790753,N,13940.33328,E,1,43,0.1,0,M,39.2,M,,*67,1.70245E+12
$GPGGA,52927,3532.790757,N,13940.33328,E,1,44,0.1,0,M,39.2,M,,*62,1.70245E+12

